%time,field.header.seq,field.header.stamp,field.header.frame_id,field.cones0.x,field.cones0.y,field.cones0.color,field.cones1.x,field.cones1.y,field.cones1.color,field.cones2.x,field.cones2.y,field.cones2.color,field.cones3.x,field.cones3.y,field.cones3.color,field.cones4.x,field.cones4.y,field.cones4.color,field.cones5.x,field.cones5.y,field.cones5.color,field.cones6.x,field.cones6.y,field.cones6.color,field.cones7.x,field.cones7.y,field.cones7.color,field.cones8.x,field.cones8.y,field.cones8.color,field.car.x,field.car.y,field.car.theta
1586879153890020215,0,1586879153889834676,,3919.33374023,1458.15209961,0,5913.36035156,1478.9498291,0,7911.54589844,1476.08935547,0,9909.54394531,1476.21923828,0,11908.7861328,1491.92663574,0,9905.77929688,-1506.8614502,0,7908.78613281,-1489.44897461,0,5912.77441406,-1478.91845703,0,3917.26831055,-1460.19580078,0,0.0,0.0,0.0
1586879153892024823,1,1586879153891972722,,3924.06201172,1456.38012695,0,5914.25195312,1476.82080078,0,7914.43847656,1472.74353027,0,9908.75,1475.64416504,0,11908.484375,1487.3548584,0,9905.77929688,-1506.8614502,0,7908.78613281,-1489.44897461,0,5912.77441406,-1478.91845703,0,3917.26831055,-1460.19580078,0,13905.6318359,-1487.75427246,0,11908.1494141,-1485.19128418,0,400.0,-1.0,0.0
1586879153947645093,2,1586879153947365779,,3924.06201172,1456.38012695,0,5914.25195312,1476.82080078,0,7914.43847656,1472.74353027,0,9908.75,1475.64416504,0,11908.484375,1487.3548584,0,9905.77929688,-1506.8614502,0,7908.78613281,-1489.44897461,0,5912.77441406,-1478.91845703,0,3917.26831055,-1460.19580078,0,13905.6318359,-1487.75427246,0,11908.1494141,-1485.19128418,0,801.0,-2.0,0.0
1586879153990469388,3,1586879153990349940,,3928.21362305,1444.5994873,0,5916.8515625,1470.26733398,0,7911.87548828,1474.90881348,0,9909.03320312,1480.19226074,0,11912.1816406,1482.9161377,0,9907.38671875,-1493.96191406,0,7910.75976562,-1493.49743652,0,5916.49951172,-1477.42871094,0,3918.97192383,-1452.87255859,0,13905.6318359,-1487.75427246,0,11908.2177734,-1490.11376953,0,13910.7539062,1484.27990723,0,1202.0,-3.0,0.0
1586879154040450014,4,1586879154040339543,,3939.22485352,1444.06176758,0,5917.31835938,1467.17077637,0,7912.38525391,1472.58837891,0,9910.21582031,1478.74279785,0,11911.9501953,1486.49841309,0,9908.01757812,-1493.00061035,0,7911.23535156,-1492.29101562,0,5915.96533203,-1476.92932129,0,3927.60327148,-1449.10412598,0,13905.6318359,-1487.75427246,0,11909.2519531,-1489.92431641,0,13910.7539062,1484.27990723,0,15905.8691406,1488.17150879,0,1605.0,-4.0,0.0
1586879154090167638,5,1586879154090035152,,3939.22485352,1444.06176758,0,5917.31835938,1467.17077637,0,7912.38525391,1472.58837891,0,9910.21582031,1478.74279785,0,11911.9501953,1486.49841309,0,9908.01757812,-1493.00061035,0,7911.23535156,-1492.29101562,0,5915.96533203,-1476.92932129,0,3927.60327148,-1449.10412598,0,13905.6318359,-1487.75427246,0,11909.2519531,-1489.92431641,0,13910.7539062,1484.27990723,0,15905.8691406,1488.17150879,0,2008.0,-4.0,0.0
1586879154141340796,6,1586879154141237731,,3939.22485352,1444.06176758,0,5921.6015625,1459.63659668,0,7913.38183594,1471.25134277,0,9912.24804688,1476.79943848,0,11910.6650391,1482.83569336,0,9908.48730469,-1496.46130371,0,7910.93798828,-1489.95166016,0,5916.69433594,-1472.24621582,0,3937.9597168,-1448.80993652,0,13909.2255859,-1503.14587402,0,11908.2460938,-1498.7175293,0,13910.1796875,1484.73217773,0,15905.8691406,1488.17150879,0,15911.8046875,-1501.9954834,0,2411.0,-5.0,0.0
1586879154190527548,7,1586879154190429091,,3939.22485352,1444.06176758,0,5921.6015625,1459.63659668,0,7913.38183594,1471.25134277,0,9912.24804688,1476.79943848,0,11910.6650391,1482.83569336,0,9908.48730469,-1496.46130371,0,7910.93798828,-1489.95166016,0,5916.69433594,-1472.24621582,0,3937.9597168,-1448.80993652,0,13909.2255859,-1503.14587402,0,11908.2460938,-1498.7175293,0,13910.1796875,1484.73217773,0,15905.8691406,1488.17150879,0,15911.8046875,-1501.9954834,0,2816.0,-6.0,0.0
1586879154240778648,8,1586879154240671667,,3939.22485352,1444.06176758,0,5921.6015625,1459.63659668,0,7913.38183594,1471.25134277,0,9912.24804688,1476.79943848,0,11910.6650391,1482.83569336,0,9908.48730469,-1496.46130371,0,7910.93798828,-1489.95166016,0,5916.69433594,-1472.24621582,0,3937.9597168,-1448.80993652,0,13909.2255859,-1503.14587402,0,11908.2460938,-1498.7175293,0,13910.1796875,1484.73217773,0,15905.8691406,1488.17150879,0,15911.8046875,-1501.9954834,0,3220.0,-7.0,0.0
1586879154289598401,9,1586879154289486192,,3939.22485352,1444.06176758,0,5921.6015625,1459.63659668,0,7913.38183594,1471.25134277,0,9912.24804688,1476.79943848,0,11910.6650391,1482.83569336,0,9908.48730469,-1496.46130371,0,7910.93798828,-1489.95166016,0,5916.69433594,-1472.24621582,0,3937.9597168,-1448.80993652,0,13909.2255859,-1503.14587402,0,11908.2460938,-1498.7175293,0,13910.1796875,1484.73217773,0,15905.8691406,1488.17150879,0,15911.8046875,-1501.9954834,0,3626.0,-8.0,0.0
1586879154340859571,10,1586879154340559712,,3939.22485352,1444.06176758,0,5936.46386719,1446.52526855,0,7917.08984375,1461.62890625,0,9913.08789062,1472.44128418,0,11912.2119141,1477.50512695,0,9909.22558594,-1494.62036133,0,7913.20068359,-1483.77453613,0,5932.81884766,-1458.83496094,0,3937.9597168,-1448.80993652,0,13909.8964844,-1501.76074219,0,11908.1650391,-1496.4543457,0,13910.1201172,1480.74230957,0,15911.8476562,1475.85632324,0,15910.0205078,-1514.0567627,0,17911.703125,-1526.14221191,0,4032.0,-9.0,0.0
1586879154389674358,11,1586879154389618989,,3939.22485352,1444.06176758,0,5936.46386719,1446.52526855,0,7917.08984375,1461.62890625,0,9913.08789062,1472.44128418,0,11912.2119141,1477.50512695,0,9909.22558594,-1494.62036133,0,7913.20068359,-1483.77453613,0,5932.81884766,-1458.83496094,0,3937.9597168,-1448.80993652,0,13909.8964844,-1501.76074219,0,11908.1650391,-1496.4543457,0,13910.1201172,1480.74230957,0,15911.8476562,1475.85632324,0,15910.0205078,-1514.0567627,0,17911.703125,-1526.14221191,0,4439.0,-10.0,0.0
1586879154439646690,12,1586879154439555724,,3939.22485352,1444.06176758,0,5936.46386719,1446.52526855,0,7917.08984375,1461.62890625,0,9913.08789062,1472.44128418,0,11912.2119141,1477.50512695,0,9909.22558594,-1494.62036133,0,7913.20068359,-1483.77453613,0,5932.81884766,-1458.83496094,0,3937.9597168,-1448.80993652,0,13909.8964844,-1501.76074219,0,11908.1650391,-1496.4543457,0,13910.1201172,1480.74230957,0,15911.8476562,1475.85632324,0,15910.0205078,-1514.0567627,0,17911.703125,-1526.14221191,0,4847.0,-11.0,0.0
1586879154489931727,13,1586879154489850746,,3939.22485352,1444.06176758,0,5936.46386719,1446.52526855,0,7926.35791016,1448.94189453,0,9914.33691406,1467.2857666,0,11913.0654297,1472.69958496,0,9910.12304688,-1491.27319336,0,7919.52392578,-1471.99768066,0,5932.81884766,-1458.83496094,0,3937.9597168,-1448.80993652,0,13909.6376953,-1502.83105469,0,11908.6982422,-1497.10705566,0,13911.1992188,1477.10461426,0,15910.6533203,1476.21533203,0,15910.4599609,-1506.26672363,0,17911.4960938,-1515.05163574,0,17905.0917969,1478.60876465,0,5255.0,-12.0,0.0
1586879154539496027,14,1586879154539450525,,3939.22485352,1444.06176758,0,5936.46386719,1446.52526855,0,7931.48583984,1446.33691406,0,9915.37304688,1464.32922363,0,11913.2285156,1470.94348145,0,9910.58886719,-1490.10424805,0,7924.57519531,-1467.58044434,0,5932.81884766,-1458.83496094,0,3937.9597168,-1448.80993652,0,13909.4824219,-1503.61047363,0,11908.75,-1496.9588623,0,13911.4589844,1475.86193848,0,15911.1347656,1474.92993164,0,15910.4960938,-1505.77185059,0,17911.4960938,-1515.05163574,0,17905.0917969,1478.60876465,0,19903.9140625,1474.86682129,0,5664.0,-13.0,0.0
1586879154593885802,15,1586879154593502649,,3939.22485352,1444.06176758,0,5936.46386719,1446.52526855,0,7931.48583984,1446.33691406,0,9915.37304688,1464.32922363,0,11913.2285156,1470.94348145,0,9910.58886719,-1490.10424805,0,7924.57519531,-1467.58044434,0,5932.81884766,-1458.83496094,0,3937.9597168,-1448.80993652,0,13909.4824219,-1503.61047363,0,11908.75,-1496.9588623,0,13911.4589844,1475.86193848,0,15911.1347656,1474.92993164,0,15910.4960938,-1505.77185059,0,17911.4960938,-1515.05163574,0,17905.0917969,1478.60876465,0,19903.9140625,1474.86682129,0,6073.0,-13.0,0.0
1586879154646086662,16,1586879154645608077,,3939.22485352,1444.06176758,0,5936.46386719,1446.52526855,0,7931.48583984,1446.33691406,0,9915.37304688,1464.32922363,0,11913.2285156,1470.94348145,0,9910.58886719,-1490.10424805,0,7924.57519531,-1467.58044434,0,5932.81884766,-1458.83496094,0,3937.9597168,-1448.80993652,0,13909.4824219,-1503.61047363,0,11908.75,-1496.9588623,0,13911.4589844,1475.86193848,0,15911.1347656,1474.92993164,0,15910.4960938,-1505.77185059,0,17911.4960938,-1515.05163574,0,17905.0917969,1478.60876465,0,19903.9140625,1474.86682129,0,6483.0,-14.0,0.0
1586879154695806746,17,1586879154695481759,,3939.22485352,1444.06176758,0,5936.46386719,1446.52526855,0,7931.48583984,1446.33691406,0,9915.37304688,1464.32922363,0,11913.2285156,1470.94348145,0,9910.58886719,-1490.10424805,0,7924.57519531,-1467.58044434,0,5932.81884766,-1458.83496094,0,3937.9597168,-1448.80993652,0,13909.4824219,-1503.61047363,0,11908.75,-1496.9588623,0,13911.4589844,1475.86193848,0,15911.1347656,1474.92993164,0,15910.4960938,-1505.77185059,0,17911.4960938,-1515.05163574,0,17905.0917969,1478.60876465,0,19903.9140625,1474.86682129,0,6894.0,-15.0,0.0
1586879154742082147,18,1586879154741859244,,3939.22485352,1444.06176758,0,5936.46386719,1446.52526855,0,7931.48583984,1446.33691406,0,9915.37304688,1464.32922363,0,11913.2285156,1470.94348145,0,9910.58886719,-1490.10424805,0,7924.57519531,-1467.58044434,0,5932.81884766,-1458.83496094,0,3937.9597168,-1448.80993652,0,13909.4824219,-1503.61047363,0,11908.75,-1496.9588623,0,13911.4589844,1475.86193848,0,15911.1347656,1474.92993164,0,15910.4960938,-1505.77185059,0,17911.4960938,-1515.05163574,0,17905.0917969,1478.60876465,0,19903.9140625,1474.86682129,0,7305.0,-16.0,0.0
1586879154789626702,19,1586879154789479909,,3939.22485352,1444.06176758,0,5936.46386719,1446.52526855,0,7931.48583984,1446.33691406,0,9931.95996094,1443.52758789,0,11915.8857422,1459.14648438,0,9921.51171875,-1472.04467773,0,7932.89746094,-1465.390625,0,5932.81884766,-1458.83496094,0,3937.9597168,-1448.80993652,0,13908.7685547,-1503.65100098,0,11911.0527344,-1492.40930176,0,13912.2431641,1468.81335449,0,15911.8486328,1471.37426758,0,15910.6660156,-1507.21862793,0,17910.6230469,-1509.97180176,0,17909.9394531,1470.45959473,0,19906.0117188,1469.53210449,0,19900.84375,-1515.2331543,0,7717.0,-17.0,0.0
1586879154840397513,20,1586879154840271330,,3939.22485352,1444.06176758,0,5936.46386719,1446.52526855,0,7931.48583984,1446.33691406,0,9931.95996094,1443.52758789,0,11915.8857422,1459.14648438,0,9921.51171875,-1472.04467773,0,7932.89746094,-1465.390625,0,5932.81884766,-1458.83496094,0,3937.9597168,-1448.80993652,0,13908.7685547,-1503.65100098,0,11911.0527344,-1492.40930176,0,13912.2431641,1468.81335449,0,15911.8486328,1471.37426758,0,15910.6660156,-1507.21862793,0,17910.6230469,-1509.97180176,0,17909.9394531,1470.45959473,0,19906.0117188,1469.53210449,0,19900.84375,-1515.2331543,0,8130.0,-18.0,0.0
1586879154901392707,21,1586879154901098880,,3939.22485352,1444.06176758,0,5936.46386719,1446.52526855,0,7931.48583984,1446.33691406,0,9931.95996094,1443.52758789,0,11918.84375,1451.65820312,0,9927.52441406,-1470.66564941,0,7932.89746094,-1465.390625,0,5932.81884766,-1458.83496094,0,3937.9597168,-1448.80993652,0,13908.9726562,-1502.87463379,0,11912.7080078,-1487.73535156,0,13912.7431641,1464.63391113,0,15912.2333984,1469.07495117,0,15910.1601562,-1507.20593262,0,17910.1445312,-1508.90185547,0,17910.4550781,1467.69348145,0,19906.8066406,1464.17553711,0,19904.984375,-1511.30664062,0,21911.84375,-1520.56530762,0,8544.0,-19.0,0.0
1586879154947397677,22,1586879154946936770,,3939.22485352,1444.06176758,0,5936.46386719,1446.52526855,0,7931.48583984,1446.33691406,0,9931.95996094,1443.52758789,0,11922.1181641,1445.13549805,0,9927.52441406,-1470.66564941,0,7932.89746094,-1465.390625,0,5932.81884766,-1458.83496094,0,3937.9597168,-1448.80993652,0,13909.3720703,-1501.90783691,0,11914.8486328,-1484.26501465,0,13913.6054688,1461.04101562,0,15912.5117188,1467.26196289,0,15910.3564453,-1507.42797852,0,17910.7441406,-1509.56945801,0,17910.0214844,1466.97692871,0,19907.2089844,1464.27368164,0,19905.125,-1515.50354004,0,21911.84375,-1520.56530762,0,21915.1113281,1462.40612793,0,8958.0,-20.0,0.0
1586879154997744639,23,1586879154997330096,,3939.22485352,1444.06176758,0,5936.46386719,1446.52526855,0,7931.48583984,1446.33691406,0,9931.95996094,1443.52758789,0,11922.1181641,1445.13549805,0,9927.52441406,-1470.66564941,0,7932.89746094,-1465.390625,0,5932.81884766,-1458.83496094,0,3937.9597168,-1448.80993652,0,13909.3720703,-1501.90783691,0,11914.8486328,-1484.26501465,0,13913.6054688,1461.04101562,0,15912.5117188,1467.26196289,0,15910.3564453,-1507.42797852,0,17910.7441406,-1509.56945801,0,17910.0214844,1466.97692871,0,19907.2089844,1464.27368164,0,19905.125,-1515.50354004,0,21911.84375,-1520.56530762,0,21915.1113281,1462.40612793,0,9372.0,-21.0,0.0
1586879155044649740,24,1586879155044302451,,3939.22485352,1444.06176758,0,5936.46386719,1446.52526855,0,7931.48583984,1446.33691406,0,9931.95996094,1443.52758789,0,11931.7783203,1438.51965332,0,9927.52441406,-1470.66564941,0,7932.89746094,-1465.390625,0,5932.81884766,-1458.83496094,0,3937.9597168,-1448.80993652,0,13909.859375,-1500.75390625,0,11922.03125,-1474.89160156,0,13915.5498047,1453.98754883,0,15912.6064453,1464.57006836,0,15910.5224609,-1506.2779541,0,17911.0976562,-1509.01367188,0,17910.1777344,1465.10229492,0,19909.1210938,1462.69628906,0,19907.7382812,-1515.09509277,0,21911.84375,-1520.56530762,0,21912.2695312,1462.04248047,0,23912.40625,1448.59008789,0,9788.0,-22.0,0.0
1586879155094668918,25,1586879155094347604,,3939.22485352,1444.06176758,0,5936.46386719,1446.52526855,0,7931.48583984,1446.33691406,0,9931.95996094,1443.52758789,0,11931.7783203,1438.51965332,0,9927.52441406,-1470.66564941,0,7932.89746094,-1465.390625,0,5932.81884766,-1458.83496094,0,3937.9597168,-1448.80993652,0,13910.8730469,-1497.97485352,0,11927.6503906,-1473.81481934,0,13916.4589844,1451.7097168,0,15913.0361328,1462.79309082,0,15910.4609375,-1507.24633789,0,17910.546875,-1510.2421875,0,17910.2324219,1463.78320312,0,19910.1660156,1463.75415039,0,19909.2949219,-1513.88549805,0,21907.0996094,-1527.78308105,0,21911.4160156,1459.49853516,0,23912.40625,1448.59008789,0,25917.0742188,-1553.80786133,0,23907.5527344,-1538.57092285,0,10204.0,-23.0,0.0
1586879155144936353,26,1586879155144629320,,3939.22485352,1444.06176758,0,5936.46386719,1446.52526855,0,7931.48583984,1446.33691406,0,9931.95996094,1443.52758789,0,11931.7783203,1438.51965332,0,9927.52441406,-1470.66564941,0,7932.89746094,-1465.390625,0,5932.81884766,-1458.83496094,0,3937.9597168,-1448.80993652,0,13910.8730469,-1497.97485352,0,11927.6503906,-1473.81481934,0,13916.4589844,1451.7097168,0,15913.0361328,1462.79309082,0,15910.4609375,-1507.24633789,0,17910.546875,-1510.2421875,0,17910.2324219,1463.78320312,0,19910.1660156,1463.75415039,0,19909.2949219,-1513.88549805,0,21907.0996094,-1527.78308105,0,21911.4160156,1459.49853516,0,23912.40625,1448.59008789,0,25917.0742188,-1553.80786133,0,23907.5527344,-1538.57092285,0,10620.0,-24.0,0.0
1586879155194700813,27,1586879155194433732,,3939.22485352,1444.06176758,0,5936.46386719,1446.52526855,0,7931.48583984,1446.33691406,0,9931.95996094,1443.52758789,0,11931.7783203,1438.51965332,0,9927.52441406,-1470.66564941,0,7932.89746094,-1465.390625,0,5932.81884766,-1458.83496094,0,3937.9597168,-1448.80993652,0,13910.8730469,-1497.97485352,0,11927.6503906,-1473.81481934,0,13916.4589844,1451.7097168,0,15913.0361328,1462.79309082,0,15910.4609375,-1507.24633789,0,17910.546875,-1510.2421875,0,17910.2324219,1463.78320312,0,19910.1660156,1463.75415039,0,19909.2949219,-1513.88549805,0,21907.0996094,-1527.78308105,0,21911.4160156,1459.49853516,0,23912.40625,1448.59008789,0,25917.0742188,-1553.80786133,0,23907.5527344,-1538.57092285,0,11038.0,-25.0,0.0
1586879155239404909,28,1586879155239284840,,3939.22485352,1444.06176758,0,5936.46386719,1446.52526855,0,7931.48583984,1446.33691406,0,9931.95996094,1443.52758789,0,11931.7783203,1438.51965332,0,9927.52441406,-1470.66564941,0,7932.89746094,-1465.390625,0,5932.81884766,-1458.83496094,0,3937.9597168,-1448.80993652,0,13910.8730469,-1497.97485352,0,11927.6503906,-1473.81481934,0,13916.4589844,1451.7097168,0,15913.0361328,1462.79309082,0,15910.4609375,-1507.24633789,0,17910.546875,-1510.2421875,0,17910.2324219,1463.78320312,0,19910.1660156,1463.75415039,0,19909.2949219,-1513.88549805,0,21907.0996094,-1527.78308105,0,21911.4160156,1459.49853516,0,23912.40625,1448.59008789,0,25917.0742188,-1553.80786133,0,23907.5527344,-1538.57092285,0,11456.0,-26.0,0.0
1586879155289402697,29,1586879155289324233,,3939.22485352,1444.06176758,0,5936.46386719,1446.52526855,0,7931.48583984,1446.33691406,0,9931.95996094,1443.52758789,0,11931.7783203,1438.51965332,0,9927.52441406,-1470.66564941,0,7932.89746094,-1465.390625,0,5932.81884766,-1458.83496094,0,3937.9597168,-1448.80993652,0,13921.4423828,-1482.24780273,0,11927.6503906,-1473.81481934,0,13935.8701172,1434.25085449,0,15915.7519531,1451.08276367,0,15911.4667969,-1503.14941406,0,17910.5976562,-1510.67932129,0,17911.3476562,1458.36181641,0,19910.2539062,1458.79626465,0,19909.0117188,-1513.92028809,0,21910.2871094,-1522.79284668,0,21911.7441406,1459.94299316,0,23914.1777344,1455.83239746,0,25917.0742188,-1553.80786133,0,23910.3320312,-1529.09753418,0,25912.6425781,1455.79162598,0,11874.0,-26.0,0.0
1586879155339861286,30,1586879155339814651,,3939.22485352,1444.06176758,0,5936.46386719,1446.52526855,0,7931.48583984,1446.33691406,0,9931.95996094,1443.52758789,0,11931.7783203,1438.51965332,0,9927.52441406,-1470.66564941,0,7932.89746094,-1465.390625,0,5932.81884766,-1458.83496094,0,3937.9597168,-1448.80993652,0,13921.4423828,-1482.24780273,0,11927.6503906,-1473.81481934,0,13935.8701172,1434.25085449,0,15915.7519531,1451.08276367,0,15911.4667969,-1503.14941406,0,17910.5976562,-1510.67932129,0,17911.3476562,1458.36181641,0,19910.2539062,1458.79626465,0,19909.0117188,-1513.92028809,0,21910.2871094,-1522.79284668,0,21911.7441406,1459.94299316,0,23914.1777344,1455.83239746,0,25917.0742188,-1553.80786133,0,23910.3320312,-1529.09753418,0,25912.6425781,1455.79162598,0,12294.0,-27.0,0.0
1586879155389272481,31,1586879155389200560,,3939.22485352,1444.06176758,0,5936.46386719,1446.52526855,0,7931.48583984,1446.33691406,0,9931.95996094,1443.52758789,0,11931.7783203,1438.51965332,0,9927.52441406,-1470.66564941,0,7932.89746094,-1465.390625,0,5932.81884766,-1458.83496094,0,3937.9597168,-1448.80993652,0,13921.4423828,-1482.24780273,0,11927.6503906,-1473.81481934,0,13935.8701172,1434.25085449,0,15915.7519531,1451.08276367,0,15911.4667969,-1503.14941406,0,17910.5976562,-1510.67932129,0,17911.3476562,1458.36181641,0,19910.2539062,1458.79626465,0,19909.0117188,-1513.92028809,0,21910.2871094,-1522.79284668,0,21911.7441406,1459.94299316,0,23914.1777344,1455.83239746,0,25917.0742188,-1553.80786133,0,23910.3320312,-1529.09753418,0,25912.6425781,1455.79162598,0,12713.0,-28.0,0.0
1586879155439243851,32,1586879155439180415,,3939.22485352,1444.06176758,0,5936.46386719,1446.52526855,0,7931.48583984,1446.33691406,0,9931.95996094,1443.52758789,0,11931.7783203,1438.51965332,0,9927.52441406,-1470.66564941,0,7932.89746094,-1465.390625,0,5932.81884766,-1458.83496094,0,3937.9597168,-1448.80993652,0,13921.4423828,-1482.24780273,0,11927.6503906,-1473.81481934,0,13935.8701172,1434.25085449,0,15915.7519531,1451.08276367,0,15911.4667969,-1503.14941406,0,17910.5976562,-1510.67932129,0,17911.3476562,1458.36181641,0,19910.2539062,1458.79626465,0,19909.0117188,-1513.92028809,0,21910.2871094,-1522.79284668,0,21911.7441406,1459.94299316,0,23914.1777344,1455.83239746,0,25917.0742188,-1553.80786133,0,23910.3320312,-1529.09753418,0,25912.6425781,1455.79162598,0,13134.0,-29.0,0.0
1586879155489359393,33,1586879155489299383,,3939.22485352,1444.06176758,0,5936.46386719,1446.52526855,0,7931.48583984,1446.33691406,0,9931.95996094,1443.52758789,0,11931.7783203,1438.51965332,0,9927.52441406,-1470.66564941,0,7932.89746094,-1465.390625,0,5932.81884766,-1458.83496094,0,3937.9597168,-1448.80993652,0,13921.4423828,-1482.24780273,0,11927.6503906,-1473.81481934,0,13935.8701172,1434.25085449,0,15915.7519531,1451.08276367,0,15911.4667969,-1503.14941406,0,17910.5976562,-1510.67932129,0,17911.3476562,1458.36181641,0,19910.2539062,1458.79626465,0,19909.0117188,-1513.92028809,0,21910.2871094,-1522.79284668,0,21911.7441406,1459.94299316,0,23914.1777344,1455.83239746,0,25917.0742188,-1553.80786133,0,23910.3320312,-1529.09753418,0,25912.6425781,1455.79162598,0,13555.0,-30.0,0.0
1586879155539278678,34,1586879155539218738,,3939.22485352,1444.06176758,0,5936.46386719,1446.52526855,0,7931.48583984,1446.33691406,0,9931.95996094,1443.52758789,0,11931.7783203,1438.51965332,0,9927.52441406,-1470.66564941,0,7932.89746094,-1465.390625,0,5932.81884766,-1458.83496094,0,3937.9597168,-1448.80993652,0,13921.4423828,-1482.24780273,0,11927.6503906,-1473.81481934,0,13935.8701172,1434.25085449,0,15915.7519531,1451.08276367,0,15911.4667969,-1503.14941406,0,17910.5976562,-1510.67932129,0,17911.3476562,1458.36181641,0,19910.2539062,1458.79626465,0,19909.0117188,-1513.92028809,0,21910.2871094,-1522.79284668,0,21911.7441406,1459.94299316,0,23914.1777344,1455.83239746,0,25917.0742188,-1553.80786133,0,23910.3320312,-1529.09753418,0,25912.6425781,1455.79162598,0,13977.0,-31.0,0.0
1586879155589516647,35,1586879155589421603,,3939.22485352,1444.06176758,0,5936.46386719,1446.52526855,0,7931.48583984,1446.33691406,0,9931.95996094,1443.52758789,0,11931.7783203,1438.51965332,0,9927.52441406,-1470.66564941,0,7932.89746094,-1465.390625,0,5932.81884766,-1458.83496094,0,3937.9597168,-1448.80993652,0,13931.5859375,-1481.76940918,0,11927.6503906,-1473.81481934,0,13935.8701172,1434.25085449,0,15926.4697266,1429.78161621,0,15922.8330078,-1482.1126709,0,17912.6347656,-1504.21044922,0,17916.3574219,1441.97375488,0,19912.1289062,1450.5567627,0,19909.8222656,-1514.00695801,0,21910.0058594,-1522.17211914,0,21911.9335938,1454.76782227,0,23912.6386719,1450.18078613,0,25912.3515625,-1532.14367676,0,23909.4453125,-1527.61645508,0,25912.7011719,1452.27258301,0,27905.6328125,-1518.75427246,0,14400.0,-32.0,0.0
1586879155639278060,36,1586879155639168329,,3939.22485352,1444.06176758,0,5936.46386719,1446.52526855,0,7931.48583984,1446.33691406,0,9931.95996094,1443.52758789,0,11931.7783203,1438.51965332,0,9927.52441406,-1470.66564941,0,7932.89746094,-1465.390625,0,5932.81884766,-1458.83496094,0,3937.9597168,-1448.80993652,0,13931.5859375,-1481.76940918,0,11927.6503906,-1473.81481934,0,13935.8701172,1434.25085449,0,15926.4697266,1429.78161621,0,15922.8330078,-1482.1126709,0,17912.6347656,-1504.21044922,0,17916.3574219,1441.97375488,0,19912.1289062,1450.5567627,0,19909.8222656,-1514.00695801,0,21910.0058594,-1522.17211914,0,21911.9335938,1454.76782227,0,23912.6386719,1450.18078613,0,25912.3515625,-1532.14367676,0,23909.4453125,-1527.61645508,0,25912.7011719,1452.27258301,0,27905.6328125,-1518.75427246,0,14823.0,-33.0,0.0
1586879155699824319,37,1586879155699466845,,3939.22485352,1444.06176758,0,5936.46386719,1446.52526855,0,7931.48583984,1446.33691406,0,9931.95996094,1443.52758789,0,11931.7783203,1438.51965332,0,9927.52441406,-1470.66564941,0,7932.89746094,-1465.390625,0,5932.81884766,-1458.83496094,0,3937.9597168,-1448.80993652,0,13931.5859375,-1481.76940918,0,11927.6503906,-1473.81481934,0,13935.8701172,1434.25085449,0,15926.4697266,1429.78161621,0,15922.8330078,-1482.1126709,0,17915.8476562,-1496.33520508,0,17922.8554688,1429.28430176,0,19913.0800781,1445.91760254,0,19910.484375,-1512.59716797,0,21909.796875,-1523.58764648,0,21912.2714844,1452.86474609,0,23912.8632812,1450.05090332,0,25911.1542969,-1526.31237793,0,23910.0019531,-1525.35083008,0,25911.875,1450.83947754,0,27905.6328125,-1518.75427246,0,27904.5175781,1457.65808105,0,15247.0,-34.0,0.0
1586879155741645291,38,1586879155741430656,,3939.22485352,1444.06176758,0,5936.46386719,1446.52526855,0,7931.48583984,1446.33691406,0,9931.95996094,1443.52758789,0,11931.7783203,1438.51965332,0,9927.52441406,-1470.66564941,0,7932.89746094,-1465.390625,0,5932.81884766,-1458.83496094,0,3937.9597168,-1448.80993652,0,13931.5859375,-1481.76940918,0,11927.6503906,-1473.81481934,0,13935.8701172,1434.25085449,0,15926.4697266,1429.78161621,0,15922.8330078,-1482.1126709,0,17918.7070312,-1492.37561035,0,17927.0527344,1426.70300293,0,19913.1601562,1445.34814453,0,19910.4980469,-1511.88745117,0,21910.0625,-1523.32226562,0,21911.9140625,1450.72229004,0,23912.8867188,1449.6619873,0,25911.5039062,-1527.63977051,0,23909.6679688,-1526.49377441,0,25912.25,1451.85095215,0,27905.6328125,-1518.75427246,0,27904.5175781,1457.65869141,0,29905.5859375,1449.06506348,0,15671.0,-35.0,0.0
1586879155789504238,39,1586879155789441576,,3939.22485352,1444.06176758,0,5936.46386719,1446.52526855,0,7931.48583984,1446.33691406,0,9931.95996094,1443.52758789,0,11931.7783203,1438.51965332,0,9927.52441406,-1470.66564941,0,7932.89746094,-1465.390625,0,5932.81884766,-1458.83496094,0,3937.9597168,-1448.80993652,0,13931.5859375,-1481.76940918,0,11927.6503906,-1473.81481934,0,13935.8701172,1434.25085449,0,15926.4697266,1429.78161621,0,15922.8330078,-1482.1126709,0,17924.0761719,-1489.95214844,0,17927.0527344,1426.70300293,0,19913.6601562,1443.84301758,0,19911.1894531,-1510.32397461,0,21910.1152344,-1523.29553223,0,21912.1425781,1449.56445312,0,23912.6816406,1449.39111328,0,25911.6542969,-1527.55236816,0,23909.4589844,-1526.30187988,0,25911.6757812,1451.76940918,0,27905.9824219,-1518.83679199,0,27904.1425781,1456.36779785,0,29905.5859375,1449.06506348,0,29908.5078125,-1544.48803711,0,16096.0,-36.0,0.0
1586879155841331781,40,1586879155841092057,,3939.22485352,1444.06176758,0,5936.46386719,1446.52526855,0,7931.48583984,1446.33691406,0,9931.95996094,1443.52758789,0,11931.7783203,1438.51965332,0,9927.52441406,-1470.66564941,0,7932.89746094,-1465.390625,0,5932.81884766,-1458.83496094,0,3937.9597168,-1448.80993652,0,13931.5859375,-1481.76940918,0,11927.6503906,-1473.81481934,0,13935.8701172,1434.25085449,0,15926.4697266,1429.78161621,0,15922.8330078,-1482.1126709,0,17924.0761719,-1489.95214844,0,17927.0527344,1426.70300293,0,19913.6601562,1443.84301758,0,19911.1894531,-1510.32397461,0,21910.1152344,-1523.29553223,0,21912.1425781,1449.56445312,0,23912.6816406,1449.39111328,0,25911.6542969,-1527.55236816,0,23909.4589844,-1526.30187988,0,25911.6757812,1451.76940918,0,27905.9824219,-1518.83679199,0,27904.1425781,1456.36779785,0,29905.5859375,1449.06506348,0,29908.5078125,-1544.48803711,0,16522.0,-37.0,0.0
1586879155892087703,41,1586879155891923666,,3939.22485352,1444.06176758,0,5936.46386719,1446.52526855,0,7931.48583984,1446.33691406,0,9931.95996094,1443.52758789,0,11931.7783203,1438.51965332,0,9927.52441406,-1470.66564941,0,7932.89746094,-1465.390625,0,5932.81884766,-1458.83496094,0,3937.9597168,-1448.80993652,0,13931.5859375,-1481.76940918,0,11927.6503906,-1473.81481934,0,13935.8701172,1434.25085449,0,15926.4697266,1429.78161621,0,15922.8330078,-1482.1126709,0,17924.0761719,-1489.95214844,0,17927.0527344,1426.70300293,0,19913.6601562,1443.84301758,0,19911.1894531,-1510.32397461,0,21910.1152344,-1523.29553223,0,21912.1425781,1449.56445312,0,23912.6816406,1449.39111328,0,25911.6542969,-1527.55236816,0,23909.4589844,-1526.30187988,0,25911.6757812,1451.76940918,0,27905.9824219,-1518.83679199,0,27904.1425781,1456.36779785,0,29905.5859375,1449.06506348,0,29908.5078125,-1544.48803711,0,16949.0,-38.0,0.0
1586879155945170637,42,1586879155944930850,,3939.22485352,1444.06176758,0,5936.46386719,1446.52526855,0,7931.48583984,1446.33691406,0,9931.95996094,1443.52758789,0,11931.7783203,1438.51965332,0,9927.52441406,-1470.66564941,0,7932.89746094,-1465.390625,0,5932.81884766,-1458.83496094,0,3937.9597168,-1448.80993652,0,13931.5859375,-1481.76940918,0,11927.6503906,-1473.81481934,0,13935.8701172,1434.25085449,0,15926.4697266,1429.78161621,0,15922.8330078,-1482.1126709,0,17924.0761719,-1489.95214844,0,17927.0527344,1426.70300293,0,19913.6601562,1443.84301758,0,19911.1894531,-1510.32397461,0,21910.1152344,-1523.29553223,0,21912.1425781,1449.56445312,0,23912.6816406,1449.39111328,0,25911.6542969,-1527.55236816,0,23909.4589844,-1526.30187988,0,25911.6757812,1451.76940918,0,27905.9824219,-1518.83679199,0,27904.1425781,1456.36779785,0,29905.5859375,1449.06506348,0,29908.5078125,-1544.48803711,0,17376.0,-39.0,0.0
1586879155992208894,43,1586879155991977819,,3939.22485352,1444.06176758,0,5936.46386719,1446.52526855,0,7931.48583984,1446.33691406,0,9931.95996094,1443.52758789,0,11931.7783203,1438.51965332,0,9927.52441406,-1470.66564941,0,7932.89746094,-1465.390625,0,5932.81884766,-1458.83496094,0,3937.9597168,-1448.80993652,0,13931.5859375,-1481.76940918,0,11927.6503906,-1473.81481934,0,13935.8701172,1434.25085449,0,15926.4697266,1429.78161621,0,15922.8330078,-1482.1126709,0,17924.0761719,-1489.95214844,0,17927.0527344,1426.70300293,0,19913.6601562,1443.84301758,0,19911.1894531,-1510.32397461,0,21910.1152344,-1523.29553223,0,21912.1425781,1449.56445312,0,23912.6816406,1449.39111328,0,25911.6542969,-1527.55236816,0,23909.4589844,-1526.30187988,0,25911.6757812,1451.76940918,0,27905.9824219,-1518.83679199,0,27904.1425781,1456.36779785,0,29905.5859375,1449.06506348,0,29908.5078125,-1544.48803711,0,17804.0,-40.0,0.0
1586879156043526257,44,1586879156043254950,,3939.22485352,1444.06176758,0,5936.46386719,1446.52526855,0,7931.48583984,1446.33691406,0,9931.95996094,1443.52758789,0,11931.7783203,1438.51965332,0,9927.52441406,-1470.66564941,0,7932.89746094,-1465.390625,0,5932.81884766,-1458.83496094,0,3937.9597168,-1448.80993652,0,13931.5859375,-1481.76940918,0,11927.6503906,-1473.81481934,0,13935.8701172,1434.25085449,0,15926.4697266,1429.78161621,0,15922.8330078,-1482.1126709,0,17924.0761719,-1489.95214844,0,17927.0527344,1426.70300293,0,19913.6601562,1443.84301758,0,19911.1894531,-1510.32397461,0,21910.1152344,-1523.29553223,0,21912.1425781,1449.56445312,0,23912.6816406,1449.39111328,0,25911.6542969,-1527.55236816,0,23909.4589844,-1526.30187988,0,25911.6757812,1451.76940918,0,27905.9824219,-1518.83679199,0,27904.1425781,1456.36779785,0,29905.5859375,1449.06506348,0,29908.5078125,-1544.48803711,0,18232.0,-41.0,0.0
1586879156092569365,45,1586879156092361143,,3939.22485352,1444.06176758,0,5936.46386719,1446.52526855,0,7931.48583984,1446.33691406,0,9931.95996094,1443.52758789,0,11931.7783203,1438.51965332,0,9927.52441406,-1470.66564941,0,7932.89746094,-1465.390625,0,5932.81884766,-1458.83496094,0,3937.9597168,-1448.80993652,0,13931.5859375,-1481.76940918,0,11927.6503906,-1473.81481934,0,13935.8701172,1434.25085449,0,15926.4697266,1429.78161621,0,15922.8330078,-1482.1126709,0,17924.0761719,-1489.95214844,0,17927.0527344,1426.70300293,0,19913.6601562,1443.84301758,0,19911.1894531,-1510.32397461,0,21910.1152344,-1523.29553223,0,21912.1425781,1449.56445312,0,23912.6816406,1449.39111328,0,25911.6542969,-1527.55236816,0,23909.4589844,-1526.30187988,0,25911.6757812,1451.76940918,0,27905.9824219,-1518.83679199,0,27904.1425781,1456.36779785,0,29905.5859375,1449.06506348,0,29908.5078125,-1544.48803711,0,18661.0,-42.0,0.0
1586879156143577199,46,1586879156143319200,,3939.22485352,1444.06176758,0,5936.46386719,1446.52526855,0,7931.48583984,1446.33691406,0,9931.95996094,1443.52758789,0,11931.7783203,1438.51965332,0,9927.52441406,-1470.66564941,0,7932.89746094,-1465.390625,0,5932.81884766,-1458.83496094,0,3937.9597168,-1448.80993652,0,13931.5859375,-1481.76940918,0,11927.6503906,-1473.81481934,0,13935.8701172,1434.25085449,0,15926.4697266,1429.78161621,0,15922.8330078,-1482.1126709,0,17924.0761719,-1489.95214844,0,17927.0527344,1426.70300293,0,19913.6601562,1443.84301758,0,19911.1894531,-1510.32397461,0,21910.1152344,-1523.29553223,0,21912.1425781,1449.56445312,0,23912.6816406,1449.39111328,0,25911.6542969,-1527.55236816,0,23909.4589844,-1526.30187988,0,25911.6757812,1451.76940918,0,27905.9824219,-1518.83679199,0,27904.1425781,1456.36779785,0,29905.5859375,1449.06506348,0,29908.5078125,-1544.48803711,0,19091.0,-43.0,0.0
1586879156192515894,47,1586879156192343749,,3939.22485352,1444.06176758,0,5936.46386719,1446.52526855,0,7931.48583984,1446.33691406,0,9931.95996094,1443.52758789,0,11931.7783203,1438.51965332,0,9927.52441406,-1470.66564941,0,7932.89746094,-1465.390625,0,5932.81884766,-1458.83496094,0,3937.9597168,-1448.80993652,0,13931.5859375,-1481.76940918,0,11927.6503906,-1473.81481934,0,13935.8701172,1434.25085449,0,15926.4697266,1429.78161621,0,15922.8330078,-1482.1126709,0,17924.0761719,-1489.95214844,0,17927.0527344,1426.70300293,0,19925.4902344,1431.31640625,0,19921.7851562,-1500.66369629,0,21914.0214844,-1511.65515137,0,21918.6269531,1434.23095703,0,23912.6210938,1445.1048584,0,25911.2773438,-1527.62243652,0,23909.3828125,-1524.4173584,0,25910.7773438,1448.70349121,0,27907.0585938,-1522.73059082,0,27906.8730469,1452.32250977,0,29906.7421875,1448.47729492,0,29908.1914062,-1543.60717773,0,31912.0546875,1407.3260498,0,31910.8222656,-1566.77050781,0,19521.0,-44.0,0.0
1586879156243304073,48,1586879156243151960,,3939.22485352,1444.06176758,0,5936.46386719,1446.52526855,0,7931.48583984,1446.33691406,0,9931.95996094,1443.52758789,0,11931.7783203,1438.51965332,0,9927.52441406,-1470.66564941,0,7932.89746094,-1465.390625,0,5932.81884766,-1458.83496094,0,3937.9597168,-1448.80993652,0,13931.5859375,-1481.76940918,0,11927.6503906,-1473.81481934,0,13935.8701172,1434.25085449,0,15926.4697266,1429.78161621,0,15922.8330078,-1482.1126709,0,17924.0761719,-1489.95214844,0,17927.0527344,1426.70300293,0,19925.4902344,1431.31640625,0,19921.7851562,-1500.66369629,0,21919.6347656,-1507.26269531,0,21933.3730469,1436.2064209,0,23913.2988281,1442.39697266,0,25911.1699219,-1527.52905273,0,23909.5195312,-1523.46459961,0,25910.8828125,1447.16052246,0,27907.3105469,-1523.00512695,0,27906.9042969,1452.06848145,0,29906.8378906,1448.45117188,0,29908.2109375,-1543.58813477,0,31912.0488281,1407.38256836,0,31910.8222656,-1566.77050781,0,33905.2382812,1405.65612793,0,33904.328125,-1592.06420898,0,19952.0,-44.0,0.0
1586879156292560977,49,1586879156292325048,,3939.22485352,1444.06176758,0,5936.46386719,1446.52526855,0,7931.48583984,1446.33691406,0,9931.95996094,1443.52758789,0,11931.7783203,1438.51965332,0,9927.52441406,-1470.66564941,0,7932.89746094,-1465.390625,0,5932.81884766,-1458.83496094,0,3937.9597168,-1448.80993652,0,13931.5859375,-1481.76940918,0,11927.6503906,-1473.81481934,0,13935.8701172,1434.25085449,0,15926.4697266,1429.78161621,0,15922.8330078,-1482.1126709,0,17924.0761719,-1489.95214844,0,17927.0527344,1426.70300293,0,19925.4902344,1431.31640625,0,19921.7851562,-1500.66369629,0,21919.6347656,-1507.26269531,0,21933.3730469,1436.2064209,0,23913.2988281,1442.39697266,0,25911.1699219,-1527.52905273,0,23909.5195312,-1523.46459961,0,25910.8828125,1447.16052246,0,27907.3105469,-1523.00512695,0,27906.9042969,1452.06848145,0,29906.8378906,1448.45117188,0,29908.2109375,-1543.58813477,0,31912.0488281,1407.38256836,0,31910.8222656,-1566.77050781,0,33905.2382812,1405.65612793,0,33904.328125,-1592.06420898,0,20384.0,-45.0,0.0
1586879156342432276,50,1586879156342211863,,3939.22485352,1444.06176758,0,5936.46386719,1446.52526855,0,7931.48583984,1446.33691406,0,9931.95996094,1443.52758789,0,11931.7783203,1438.51965332,0,9927.52441406,-1470.66564941,0,7932.89746094,-1465.390625,0,5932.81884766,-1458.83496094,0,3937.9597168,-1448.80993652,0,13931.5859375,-1481.76940918,0,11927.6503906,-1473.81481934,0,13935.8701172,1434.25085449,0,15926.4697266,1429.78161621,0,15922.8330078,-1482.1126709,0,17924.0761719,-1489.95214844,0,17927.0527344,1426.70300293,0,19925.4902344,1431.31640625,0,19921.7851562,-1500.66369629,0,21919.6347656,-1507.26269531,0,21933.3730469,1436.2064209,0,23913.2988281,1442.39697266,0,25911.1699219,-1527.52905273,0,23909.5195312,-1523.46459961,0,25910.8828125,1447.16052246,0,27907.3105469,-1523.00512695,0,27906.9042969,1452.06848145,0,29906.8378906,1448.45117188,0,29908.2109375,-1543.58813477,0,31912.0488281,1407.38256836,0,31910.8222656,-1566.77050781,0,33905.2382812,1405.65612793,0,33904.328125,-1592.06420898,0,20816.0,-46.0,0.0
1586879156390827535,51,1586879156390669113,,3939.22485352,1444.06176758,0,5936.46386719,1446.52526855,0,7931.48583984,1446.33691406,0,9931.95996094,1443.52758789,0,11931.7783203,1438.51965332,0,9927.52441406,-1470.66564941,0,7932.89746094,-1465.390625,0,5932.81884766,-1458.83496094,0,3937.9597168,-1448.80993652,0,13931.5859375,-1481.76940918,0,11927.6503906,-1473.81481934,0,13935.8701172,1434.25085449,0,15926.4697266,1429.78161621,0,15922.8330078,-1482.1126709,0,17924.0761719,-1489.95214844,0,17927.0527344,1426.70300293,0,19925.4902344,1431.31640625,0,19921.7851562,-1500.66369629,0,21919.6347656,-1507.26269531,0,21933.3730469,1436.2064209,0,23913.2988281,1442.39697266,0,25911.1699219,-1527.52905273,0,23909.5195312,-1523.46459961,0,25910.8828125,1447.16052246,0,27907.3105469,-1523.00512695,0,27906.9042969,1452.06848145,0,29906.8378906,1448.45117188,0,29908.2109375,-1543.58813477,0,31912.0488281,1407.38256836,0,31910.8222656,-1566.77050781,0,33905.2382812,1405.65612793,0,33904.328125,-1592.06420898,0,21249.0,-47.0,0.0
1586879156442258092,52,1586879156442031512,,3939.22485352,1444.06176758,0,5936.46386719,1446.52526855,0,7931.48583984,1446.33691406,0,9931.95996094,1443.52758789,0,11931.7783203,1438.51965332,0,9927.52441406,-1470.66564941,0,7932.89746094,-1465.390625,0,5932.81884766,-1458.83496094,0,3937.9597168,-1448.80993652,0,13931.5859375,-1481.76940918,0,11927.6503906,-1473.81481934,0,13935.8701172,1434.25085449,0,15926.4697266,1429.78161621,0,15922.8330078,-1482.1126709,0,17924.0761719,-1489.95214844,0,17927.0527344,1426.70300293,0,19925.4902344,1431.31640625,0,19921.7851562,-1500.66369629,0,21955.6855469,-1500.40783691,0,21933.3730469,1436.2064209,0,23929.0859375,1421.99780273,0,25911.7382812,-1526.30822754,0,23922.140625,-1505.01989746,0,25910.5214844,1438.32824707,0,27907.9472656,-1525.40722656,0,27906.5585938,1447.73181152,0,29907.0507812,1447.27062988,0,29908.5488281,-1542.96240234,0,31911.9746094,1408.02746582,0,31910.3378906,-1566.56787109,0,33905.5429688,1405.6862793,0,33904.5820312,-1592.11804199,0,35905.6914062,-1628.22485352,0,21683.0,-48.0,0.0
1586879156497835621,53,1586879156497394872,,3939.22485352,1444.06176758,0,5936.46386719,1446.52526855,0,7931.48583984,1446.33691406,0,9931.95996094,1443.52758789,0,11931.7783203,1438.51965332,0,9927.52441406,-1470.66564941,0,7932.89746094,-1465.390625,0,5932.81884766,-1458.83496094,0,3937.9597168,-1448.80993652,0,13931.5859375,-1481.76940918,0,11927.6503906,-1473.81481934,0,13935.8701172,1434.25085449,0,15926.4697266,1429.78161621,0,15922.8330078,-1482.1126709,0,17924.0761719,-1489.95214844,0,17927.0527344,1426.70300293,0,19925.4902344,1431.31640625,0,19921.7851562,-1500.66369629,0,21955.6855469,-1500.40783691,0,21933.3730469,1436.2064209,0,23929.0859375,1421.99780273,0,25913.3515625,-1523.2043457,0,23934.4160156,-1496.56921387,0,25910.9785156,1433.56640625,0,27908.1621094,-1525.64538574,0,27906.2675781,1445.97766113,0,29906.8457031,1446.60437012,0,29908.3085938,-1542.98388672,0,31911.7910156,1407.98461914,0,31910.328125,-1566.40625,0,33905.7929688,1405.72436523,0,33904.859375,-1592.07165527,0,35905.6914062,-1628.22485352,0,35904.9140625,1380.43688965,0,22117.0,-49.0,0.0
1586879156548121962,54,1586879156547655989,,3939.22485352,1444.06176758,0,5936.46386719,1446.52526855,0,7931.48583984,1446.33691406,0,9931.95996094,1443.52758789,0,11931.7783203,1438.51965332,0,9927.52441406,-1470.66564941,0,7932.89746094,-1465.390625,0,5932.81884766,-1458.83496094,0,3937.9597168,-1448.80993652,0,13931.5859375,-1481.76940918,0,11927.6503906,-1473.81481934,0,13935.8701172,1434.25085449,0,15926.4697266,1429.78161621,0,15922.8330078,-1482.1126709,0,17924.0761719,-1489.95214844,0,17927.0527344,1426.70300293,0,19925.4902344,1431.31640625,0,19921.7851562,-1500.66369629,0,21955.6855469,-1500.40783691,0,21933.3730469,1436.2064209,0,23929.0859375,1421.99780273,0,25913.3515625,-1523.2043457,0,23934.4160156,-1496.56921387,0,25910.9785156,1433.56640625,0,27908.1621094,-1525.64538574,0,27906.2675781,1445.97766113,0,29906.8457031,1446.60437012,0,29908.3085938,-1542.98388672,0,31911.7910156,1407.98461914,0,31910.328125,-1566.40625,0,33905.7929688,1405.72436523,0,33904.859375,-1592.07165527,0,35905.6914062,-1628.22485352,0,35904.9140625,1380.43688965,0,22552.0,-50.0,0.0
1586879156594738334,55,1586879156594436304,,3939.22485352,1444.06176758,0,5936.46386719,1446.52526855,0,7931.48583984,1446.33691406,0,9931.95996094,1443.52758789,0,11931.7783203,1438.51965332,0,9927.52441406,-1470.66564941,0,7932.89746094,-1465.390625,0,5932.81884766,-1458.83496094,0,3937.9597168,-1448.80993652,0,13931.5859375,-1481.76940918,0,11927.6503906,-1473.81481934,0,13935.8701172,1434.25085449,0,15926.4697266,1429.78161621,0,15922.8330078,-1482.1126709,0,17924.0761719,-1489.95214844,0,17927.0527344,1426.70300293,0,19925.4902344,1431.31640625,0,19921.7851562,-1500.66369629,0,21955.6855469,-1500.40783691,0,21933.3730469,1436.2064209,0,23929.0859375,1421.99780273,0,25913.3515625,-1523.2043457,0,23934.4160156,-1496.56921387,0,25910.9785156,1433.56640625,0,27908.1621094,-1525.64538574,0,27906.2675781,1445.97766113,0,29906.8457031,1446.60437012,0,29908.3085938,-1542.98388672,0,31911.7910156,1407.98461914,0,31910.328125,-1566.40625,0,33905.7929688,1405.72436523,0,33904.859375,-1592.07165527,0,35905.6914062,-1628.22485352,0,35904.9140625,1380.43688965,0,22988.0,-51.0,0.0
1586879156648064326,56,1586879156647730003,,3939.22485352,1444.06176758,0,5936.46386719,1446.52526855,0,7931.48583984,1446.33691406,0,9931.95996094,1443.52758789,0,11931.7783203,1438.51965332,0,9927.52441406,-1470.66564941,0,7932.89746094,-1465.390625,0,5932.81884766,-1458.83496094,0,3937.9597168,-1448.80993652,0,13931.5859375,-1481.76940918,0,11927.6503906,-1473.81481934,0,13935.8701172,1434.25085449,0,15926.4697266,1429.78161621,0,15922.8330078,-1482.1126709,0,17924.0761719,-1489.95214844,0,17927.0527344,1426.70300293,0,19925.4902344,1431.31640625,0,19921.7851562,-1500.66369629,0,21955.6855469,-1500.40783691,0,21933.3730469,1436.2064209,0,23929.0859375,1421.99780273,0,25913.3515625,-1523.2043457,0,23934.4160156,-1496.56921387,0,25910.9785156,1433.56640625,0,27908.1621094,-1525.64538574,0,27906.2675781,1445.97766113,0,29906.8457031,1446.60437012,0,29908.3085938,-1542.98388672,0,31911.7910156,1407.98461914,0,31910.328125,-1566.40625,0,33905.7929688,1405.72436523,0,33904.859375,-1592.07165527,0,35905.6914062,-1628.22485352,0,35904.9140625,1380.43688965,0,23424.0,-52.0,0.0
1586879156697986076,57,1586879156697670417,,3939.22485352,1444.06176758,0,5936.46386719,1446.52526855,0,7931.48583984,1446.33691406,0,9931.95996094,1443.52758789,0,11931.7783203,1438.51965332,0,9927.52441406,-1470.66564941,0,7932.89746094,-1465.390625,0,5932.81884766,-1458.83496094,0,3937.9597168,-1448.80993652,0,13931.5859375,-1481.76940918,0,11927.6503906,-1473.81481934,0,13935.8701172,1434.25085449,0,15926.4697266,1429.78161621,0,15922.8330078,-1482.1126709,0,17924.0761719,-1489.95214844,0,17927.0527344,1426.70300293,0,19925.4902344,1431.31640625,0,19921.7851562,-1500.66369629,0,21955.6855469,-1500.40783691,0,21933.3730469,1436.2064209,0,23929.0859375,1421.99780273,0,25928.0117188,-1506.99450684,0,23934.4160156,-1496.56921387,0,25938.4882812,1421.91491699,0,27909.796875,-1525.18127441,0,27907.1484375,1435.48937988,0,29906.8691406,1442.1796875,0,29908.3535156,-1542.76525879,0,31911.7988281,1408.08850098,0,31909.5214844,-1566.96862793,0,33906.7265625,1405.67272949,0,33905.2851562,-1591.93359375,0,35905.7734375,-1628.03747559,0,35905.3085938,1380.56860352,0,37905.3203125,-1646.22033691,0,23861.0,-53.0,0.0
1586879156748368478,58,1586879156747891539,,3939.22485352,1444.06176758,0,5936.46386719,1446.52526855,0,7931.48583984,1446.33691406,0,9931.95996094,1443.52758789,0,11931.7783203,1438.51965332,0,9927.52441406,-1470.66564941,0,7932.89746094,-1465.390625,0,5932.81884766,-1458.83496094,0,3937.9597168,-1448.80993652,0,13931.5859375,-1481.76940918,0,11927.6503906,-1473.81481934,0,13935.8701172,1434.25085449,0,15926.4697266,1429.78161621,0,15922.8330078,-1482.1126709,0,17924.0761719,-1489.95214844,0,17927.0527344,1426.70300293,0,19925.4902344,1431.31640625,0,19921.7851562,-1500.66369629,0,21955.6855469,-1500.40783691,0,21933.3730469,1436.2064209,0,23929.0859375,1421.99780273,0,25928.0117188,-1506.99450684,0,23934.4160156,-1496.56921387,0,25938.4882812,1421.91491699,0,27909.796875,-1525.18127441,0,27907.1484375,1435.48937988,0,29906.8691406,1442.1796875,0,29908.3535156,-1542.76525879,0,31911.7988281,1408.08850098,0,31909.5214844,-1566.96862793,0,33906.7265625,1405.67272949,0,33905.2851562,-1591.93359375,0,35905.7734375,-1628.03747559,0,35905.3085938,1380.56860352,0,37905.3203125,-1646.22033691,0,24299.0,-54.0,0.0
1586879156797540781,59,1586879156797330630,,3939.22485352,1444.06176758,0,5936.46386719,1446.52526855,0,7931.48583984,1446.33691406,0,9931.95996094,1443.52758789,0,11931.7783203,1438.51965332,0,9927.52441406,-1470.66564941,0,7932.89746094,-1465.390625,0,5932.81884766,-1458.83496094,0,3937.9597168,-1448.80993652,0,13931.5859375,-1481.76940918,0,11927.6503906,-1473.81481934,0,13935.8701172,1434.25085449,0,15926.4697266,1429.78161621,0,15922.8330078,-1482.1126709,0,17924.0761719,-1489.95214844,0,17927.0527344,1426.70300293,0,19925.4902344,1431.31640625,0,19921.7851562,-1500.66369629,0,21955.6855469,-1500.40783691,0,21933.3730469,1436.2064209,0,23929.0859375,1421.99780273,0,25928.0117188,-1506.99450684,0,23934.4160156,-1496.56921387,0,25938.4882812,1421.91491699,0,27909.796875,-1525.18127441,0,27907.1484375,1435.48937988,0,29906.8691406,1442.1796875,0,29908.3535156,-1542.76525879,0,31911.7988281,1408.08850098,0,31909.5214844,-1566.96862793,0,33906.7265625,1405.67272949,0,33905.2851562,-1591.93359375,0,35905.7734375,-1628.03747559,0,35905.3085938,1380.56860352,0,37905.3203125,-1646.22033691,0,24737.0,-55.0,0.0
1586879156845003707,60,1586879156844834936,,3939.22485352,1444.06176758,0,5936.46386719,1446.52526855,0,7931.48583984,1446.33691406,0,9931.95996094,1443.52758789,0,11931.7783203,1438.51965332,0,9927.52441406,-1470.66564941,0,7932.89746094,-1465.390625,0,5932.81884766,-1458.83496094,0,3937.9597168,-1448.80993652,0,13931.5859375,-1481.76940918,0,11927.6503906,-1473.81481934,0,13935.8701172,1434.25085449,0,15926.4697266,1429.78161621,0,15922.8330078,-1482.1126709,0,17924.0761719,-1489.95214844,0,17927.0527344,1426.70300293,0,19925.4902344,1431.31640625,0,19921.7851562,-1500.66369629,0,21955.6855469,-1500.40783691,0,21933.3730469,1436.2064209,0,23929.0859375,1421.99780273,0,25928.0117188,-1506.99450684,0,23934.4160156,-1496.56921387,0,25938.4882812,1421.91491699,0,27909.796875,-1525.18127441,0,27907.1484375,1435.48937988,0,29906.8691406,1442.1796875,0,29908.3535156,-1542.76525879,0,31911.7988281,1408.08850098,0,31909.5214844,-1566.96862793,0,33906.7265625,1405.67272949,0,33905.2851562,-1591.93359375,0,35905.7734375,-1628.03747559,0,35905.3085938,1380.56860352,0,37905.3203125,-1646.22033691,0,25176.0,-56.0,0.0
1586879156896560374,61,1586879156896244772,,3939.22485352,1444.06176758,0,5936.46386719,1446.52526855,0,7931.48583984,1446.33691406,0,9931.95996094,1443.52758789,0,11931.7783203,1438.51965332,0,9927.52441406,-1470.66564941,0,7932.89746094,-1465.390625,0,5932.81884766,-1458.83496094,0,3937.9597168,-1448.80993652,0,13931.5859375,-1481.76940918,0,11927.6503906,-1473.81481934,0,13935.8701172,1434.25085449,0,15926.4697266,1429.78161621,0,15922.8330078,-1482.1126709,0,17924.0761719,-1489.95214844,0,17927.0527344,1426.70300293,0,19925.4902344,1431.31640625,0,19921.7851562,-1500.66369629,0,21955.6855469,-1500.40783691,0,21933.3730469,1436.2064209,0,23929.0859375,1421.99780273,0,25948.5273438,-1498.39282227,0,23934.4160156,-1496.56921387,0,25938.4882812,1421.91491699,0,27922.1445312,-1508.8248291,0,27923.3828125,1415.22265625,0,29907.2773438,1432.00854492,0,29909.8886719,-1539.35827637,0,31911.3457031,1406.30993652,0,31909.8925781,-1566.78747559,0,33906.4648438,1403.43530273,0,33905.8867188,-1591.99414062,0,35905.5625,-1627.28552246,0,35905.5703125,1380.28479004,0,37905.1640625,-1646.19458008,0,37906.8828125,1348.46362305,0,39905.7890625,-1649.27111816,0,25615.0,-57.0,0.0
1586879156948180689,62,1586879156947938535,,3939.22485352,1444.06176758,0,5936.46386719,1446.52526855,0,7931.48583984,1446.33691406,0,9931.95996094,1443.52758789,0,11931.7783203,1438.51965332,0,9927.52441406,-1470.66564941,0,7932.89746094,-1465.390625,0,5932.81884766,-1458.83496094,0,3937.9597168,-1448.80993652,0,13931.5859375,-1481.76940918,0,11927.6503906,-1473.81481934,0,13935.8701172,1434.25085449,0,15926.4697266,1429.78161621,0,15922.8330078,-1482.1126709,0,17924.0761719,-1489.95214844,0,17927.0527344,1426.70300293,0,19925.4902344,1431.31640625,0,19921.7851562,-1500.66369629,0,21955.6855469,-1500.40783691,0,21933.3730469,1436.2064209,0,23929.0859375,1421.99780273,0,25948.5273438,-1498.39282227,0,23934.4160156,-1496.56921387,0,25938.4882812,1421.91491699,0,27922.1445312,-1508.8248291,0,27923.3828125,1415.22265625,0,29907.2773438,1432.00854492,0,29909.8886719,-1539.35827637,0,31911.3457031,1406.30993652,0,31909.8925781,-1566.78747559,0,33906.4648438,1403.43530273,0,33905.8867188,-1591.99414062,0,35905.5625,-1627.28552246,0,35905.5703125,1380.28479004,0,37905.1640625,-1646.19458008,0,37906.8828125,1348.46362305,0,39905.7890625,-1649.27111816,0,26055.0,-58.0,0.0
1586879156994967049,63,1586879156994576746,,3939.22485352,1444.06176758,0,5936.46386719,1446.52526855,0,7931.48583984,1446.33691406,0,9931.95996094,1443.52758789,0,11931.7783203,1438.51965332,0,9927.52441406,-1470.66564941,0,7932.89746094,-1465.390625,0,5932.81884766,-1458.83496094,0,3937.9597168,-1448.80993652,0,13931.5859375,-1481.76940918,0,11927.6503906,-1473.81481934,0,13935.8701172,1434.25085449,0,15926.4697266,1429.78161621,0,15922.8330078,-1482.1126709,0,17924.0761719,-1489.95214844,0,17927.0527344,1426.70300293,0,19925.4902344,1431.31640625,0,19921.7851562,-1500.66369629,0,21955.6855469,-1500.40783691,0,21933.3730469,1436.2064209,0,23929.0859375,1421.99780273,0,25948.5273438,-1498.39282227,0,23934.4160156,-1496.56921387,0,25938.4882812,1421.91491699,0,27933.1132812,-1500.71582031,0,27923.3828125,1415.22265625,0,29910.4550781,1420.9498291,0,29912.5195312,-1533.87573242,0,31910.9492188,1403.97180176,0,31909.9394531,-1565.83093262,0,33906.2734375,1402.0682373,0,33906.0898438,-1592.11584473,0,35906.1171875,-1626.62475586,0,35905.59375,1379.61120605,0,37905.0,-1646.15014648,0,37908.25,1349.25463867,0,39905.7890625,-1649.27111816,0,39905.6210938,1324.17150879,0,26496.0,-59.0,0.0
1586879157044770393,64,1586879157044586736,,3939.22485352,1444.06176758,0,5936.46386719,1446.52526855,0,7931.48583984,1446.33691406,0,9931.95996094,1443.52758789,0,11931.7783203,1438.51965332,0,9927.52441406,-1470.66564941,0,7932.89746094,-1465.390625,0,5932.81884766,-1458.83496094,0,3937.9597168,-1448.80993652,0,13931.5859375,-1481.76940918,0,11927.6503906,-1473.81481934,0,13935.8701172,1434.25085449,0,15926.4697266,1429.78161621,0,15922.8330078,-1482.1126709,0,17924.0761719,-1489.95214844,0,17927.0527344,1426.70300293,0,19925.4902344,1431.31640625,0,19921.7851562,-1500.66369629,0,21955.6855469,-1500.40783691,0,21933.3730469,1436.2064209,0,23929.0859375,1421.99780273,0,25948.5273438,-1498.39282227,0,23934.4160156,-1496.56921387,0,25938.4882812,1421.91491699,0,27933.1132812,-1500.71582031,0,27923.3828125,1415.22265625,0,29910.4550781,1420.9498291,0,29912.5195312,-1533.87573242,0,31910.9492188,1403.97180176,0,31909.9394531,-1565.83093262,0,33906.2734375,1402.0682373,0,33906.0898438,-1592.11584473,0,35906.1171875,-1626.62475586,0,35905.59375,1379.61120605,0,37905.0,-1646.15014648,0,37908.25,1349.25463867,0,39905.7890625,-1649.27111816,0,39905.6210938,1324.17150879,0,26938.0,-60.0,0.0
1586879157094920945,65,1586879157094567855,,3939.22485352,1444.06176758,0,5936.46386719,1446.52526855,0,7931.48583984,1446.33691406,0,9931.95996094,1443.52758789,0,11931.7783203,1438.51965332,0,9927.52441406,-1470.66564941,0,7932.89746094,-1465.390625,0,5932.81884766,-1458.83496094,0,3937.9597168,-1448.80993652,0,13931.5859375,-1481.76940918,0,11927.6503906,-1473.81481934,0,13935.8701172,1434.25085449,0,15926.4697266,1429.78161621,0,15922.8330078,-1482.1126709,0,17924.0761719,-1489.95214844,0,17927.0527344,1426.70300293,0,19925.4902344,1431.31640625,0,19921.7851562,-1500.66369629,0,21955.6855469,-1500.40783691,0,21933.3730469,1436.2064209,0,23929.0859375,1421.99780273,0,25948.5273438,-1498.39282227,0,23934.4160156,-1496.56921387,0,25938.4882812,1421.91491699,0,27933.1132812,-1500.71582031,0,27923.3828125,1415.22265625,0,29921.8925781,1407.27563477,0,29919.6191406,-1522.390625,0,31911.1621094,1400.21984863,0,31910.9589844,-1563.70751953,0,33906.0898438,1399.71362305,0,33906.8398438,-1590.98388672,0,35905.7734375,-1626.19580078,0,35905.7578125,1378.84082031,0,37905.0625,-1645.79919434,0,37908.28125,1348.93920898,0,39906.4648438,-1649.36157227,0,39906.4375,1324.58605957,0,41904.0273438,-1683.73547363,0,27380.0,-61.0,0.0
1586879157148047120,66,1586879157147813060,,3939.22485352,1444.06176758,0,5936.46386719,1446.52526855,0,7931.48583984,1446.33691406,0,9931.95996094,1443.52758789,0,11931.7783203,1438.51965332,0,9927.52441406,-1470.66564941,0,7932.89746094,-1465.390625,0,5932.81884766,-1458.83496094,0,3937.9597168,-1448.80993652,0,13931.5859375,-1481.76940918,0,11927.6503906,-1473.81481934,0,13935.8701172,1434.25085449,0,15926.4697266,1429.78161621,0,15922.8330078,-1482.1126709,0,17924.0761719,-1489.95214844,0,17927.0527344,1426.70300293,0,19925.4902344,1431.31640625,0,19921.7851562,-1500.66369629,0,21955.6855469,-1500.40783691,0,21933.3730469,1436.2064209,0,23929.0859375,1421.99780273,0,25948.5273438,-1498.39282227,0,23934.4160156,-1496.56921387,0,25938.4882812,1421.91491699,0,27933.1132812,-1500.71582031,0,27923.3828125,1415.22265625,0,29921.8925781,1407.27563477,0,29919.6191406,-1522.390625,0,31911.1621094,1400.21984863,0,31910.9589844,-1563.70751953,0,33906.0898438,1399.71362305,0,33906.8398438,-1590.98388672,0,35905.7734375,-1626.19580078,0,35905.7578125,1378.84082031,0,37905.0625,-1645.79919434,0,37908.28125,1348.93920898,0,39906.4648438,-1649.36157227,0,39906.4375,1324.58605957,0,41904.0273438,-1683.73547363,0,27823.0,-62.0,0.0
1586879157197727369,67,1586879157197494549,,3939.22485352,1444.06176758,0,5936.46386719,1446.52526855,0,7931.48583984,1446.33691406,0,9931.95996094,1443.52758789,0,11931.7783203,1438.51965332,0,9927.52441406,-1470.66564941,0,7932.89746094,-1465.390625,0,5932.81884766,-1458.83496094,0,3937.9597168,-1448.80993652,0,13931.5859375,-1481.76940918,0,11927.6503906,-1473.81481934,0,13935.8701172,1434.25085449,0,15926.4697266,1429.78161621,0,15922.8330078,-1482.1126709,0,17924.0761719,-1489.95214844,0,17927.0527344,1426.70300293,0,19925.4902344,1431.31640625,0,19921.7851562,-1500.66369629,0,21955.6855469,-1500.40783691,0,21933.3730469,1436.2064209,0,23929.0859375,1421.99780273,0,25948.5273438,-1498.39282227,0,23934.4160156,-1496.56921387,0,25938.4882812,1421.91491699,0,27933.1132812,-1500.71582031,0,27923.3828125,1415.22265625,0,29921.8925781,1407.27563477,0,29919.6191406,-1522.390625,0,31911.1621094,1400.21984863,0,31910.9589844,-1563.70751953,0,33906.0898438,1399.71362305,0,33906.8398438,-1590.98388672,0,35905.7734375,-1626.19580078,0,35905.7578125,1378.84082031,0,37905.0625,-1645.79919434,0,37908.28125,1348.93920898,0,39906.4648438,-1649.36157227,0,39906.4375,1324.58605957,0,41904.0273438,-1683.73547363,0,28266.0,-63.0,0.0
1586879157241037698,68,1586879157240901737,,3939.22485352,1444.06176758,0,5936.46386719,1446.52526855,0,7931.48583984,1446.33691406,0,9931.95996094,1443.52758789,0,11931.7783203,1438.51965332,0,9927.52441406,-1470.66564941,0,7932.89746094,-1465.390625,0,5932.81884766,-1458.83496094,0,3937.9597168,-1448.80993652,0,13931.5859375,-1481.76940918,0,11927.6503906,-1473.81481934,0,13935.8701172,1434.25085449,0,15926.4697266,1429.78161621,0,15922.8330078,-1482.1126709,0,17924.0761719,-1489.95214844,0,17927.0527344,1426.70300293,0,19925.4902344,1431.31640625,0,19921.7851562,-1500.66369629,0,21955.6855469,-1500.40783691,0,21933.3730469,1436.2064209,0,23929.0859375,1421.99780273,0,25948.5273438,-1498.39282227,0,23934.4160156,-1496.56921387,0,25938.4882812,1421.91491699,0,27933.1132812,-1500.71582031,0,27923.3828125,1415.22265625,0,29921.8925781,1407.27563477,0,29919.6191406,-1522.390625,0,31911.1621094,1400.21984863,0,31910.9589844,-1563.70751953,0,33906.0898438,1399.71362305,0,33906.8398438,-1590.98388672,0,35905.7734375,-1626.19580078,0,35905.7578125,1378.84082031,0,37905.0625,-1645.79919434,0,37908.28125,1348.93920898,0,39906.4648438,-1649.36157227,0,39906.4375,1324.58605957,0,41904.0273438,-1683.73547363,0,28710.0,-64.0,0.0
1586879157293209154,69,1586879157292892869,,3939.22485352,1444.06176758,0,5936.46386719,1446.52526855,0,7931.48583984,1446.33691406,0,9931.95996094,1443.52758789,0,11931.7783203,1438.51965332,0,9927.52441406,-1470.66564941,0,7932.89746094,-1465.390625,0,5932.81884766,-1458.83496094,0,3937.9597168,-1448.80993652,0,13931.5859375,-1481.76940918,0,11927.6503906,-1473.81481934,0,13935.8701172,1434.25085449,0,15926.4697266,1429.78161621,0,15922.8330078,-1482.1126709,0,17924.0761719,-1489.95214844,0,17927.0527344,1426.70300293,0,19925.4902344,1431.31640625,0,19921.7851562,-1500.66369629,0,21955.6855469,-1500.40783691,0,21933.3730469,1436.2064209,0,23929.0859375,1421.99780273,0,25948.5273438,-1498.39282227,0,23934.4160156,-1496.56921387,0,25938.4882812,1421.91491699,0,27933.1132812,-1500.71582031,0,27923.3828125,1415.22265625,0,29921.8925781,1407.27563477,0,29919.6191406,-1522.390625,0,31911.1621094,1400.21984863,0,31910.9589844,-1563.70751953,0,33906.0898438,1399.71362305,0,33906.8398438,-1590.98388672,0,35905.7734375,-1626.19580078,0,35905.7578125,1378.84082031,0,37905.0625,-1645.79919434,0,37908.28125,1348.93920898,0,39906.4648438,-1649.36157227,0,39906.4375,1324.58605957,0,41904.0273438,-1683.73547363,0,29155.0,-65.0,0.0
1586879157346871637,70,1586879157346642700,,3939.22485352,1444.06176758,0,5936.46386719,1446.52526855,0,7931.48583984,1446.33691406,0,9931.95996094,1443.52758789,0,11931.7783203,1438.51965332,0,9927.52441406,-1470.66564941,0,7932.89746094,-1465.390625,0,5932.81884766,-1458.83496094,0,3937.9597168,-1448.80993652,0,13931.5859375,-1481.76940918,0,11927.6503906,-1473.81481934,0,13935.8701172,1434.25085449,0,15926.4697266,1429.78161621,0,15922.8330078,-1482.1126709,0,17924.0761719,-1489.95214844,0,17927.0527344,1426.70300293,0,19925.4902344,1431.31640625,0,19921.7851562,-1500.66369629,0,21955.6855469,-1500.40783691,0,21933.3730469,1436.2064209,0,23929.0859375,1421.99780273,0,25948.5273438,-1498.39282227,0,23934.4160156,-1496.56921387,0,25938.4882812,1421.91491699,0,27933.1132812,-1500.71582031,0,27923.3828125,1415.22265625,0,29921.8925781,1407.27563477,0,29919.6191406,-1522.390625,0,31911.1621094,1400.21984863,0,31910.9589844,-1563.70751953,0,33906.0898438,1399.71362305,0,33906.8398438,-1590.98388672,0,35905.7734375,-1626.19580078,0,35905.7578125,1378.84082031,0,37905.0625,-1645.79919434,0,37908.28125,1348.93920898,0,39906.4648438,-1649.36157227,0,39906.4375,1324.58605957,0,41904.0273438,-1683.73547363,0,29600.0,-66.0,0.0
